id,nom,type,commune,district,region,adresse,lon,lat
exploitation-21,Ampasimbe Sahamirary,VOI,Andapafito,Soanierana Ivongo,Analanjirofo,"Andapafito, Soanierana Ivongo, Analanjirofo, Madagascar",48.838621,-16.844301
exploitation-24,MANAKOMBE,VOI,Didy,Ambatondrazaka,Alaotra Mangoro,"Didy, Ambatondrazaka, Alaotra Mangoro, Madagascar",48.554086,-18.247927
exploitation-26,Lot n°1 Ambohijanahary,Adjudicataire,Soaloka,Miandrivazo,Menabe,"Soaloka, Miandrivazo, Menabe, Madagascar",45.427554,-18.518745
exploitation-27,Amboniriana,VOI,Andilamena,Andilamena,Alaotra Mangoro,"Andilamena, Andilamena, Alaotra Mangoro, Madagascar",48.78028,-16.82812
exploitation-28,Adohasahabe-Lakambaky,VOI,Mangarivotra,Moramanga,Alaotra Mangoro,"Mangarivotra, Moramanga, Alaotra Mangoro, Madagascar",48.98764,-19.16714
